{
  "type": "FeatureCollection",
  "name": "Edinburgh South Suburban Railway - Disused Stations",
  "features": [
    {
      "type": "Feature",
      "properties": {
        "name": "Gorgie East",
        "closed": 1965,
        "notes": "On Gorgie Road, near junction with Wardlaw Street"
      },
      "geometry": {
        "type": "Point",
        "coordinates": [-3.2284, 55.9317]
      }
    },
    {
      "type": "Feature",
      "properties": {
        "name": "Morningside Road",
        "closed": 1962,
        "notes": "On Morningside Road near Maxwell Street"
      },
      "geometry": {
        "type": "Point",
        "coordinates": [-3.2097, 55.9238]
      }
    },
    {
      "type": "Feature",
      "properties": {
        "name": "Blackford",
        "closed": 1962,
        "notes": "Near Blackford Avenue, south of the Braid Hills"
      },
      "geometry": {
        "type": "Point",
        "coordinates": [-3.1889, 55.9196]
      }
    },
    {
      "type": "Feature",
      "properties": {
        "name": "Newington",
        "closed": 1962,
        "notes": "Near Mayfield Road / Newington Road junction"
      },
      "geometry": {
        "type": "Point",
        "coordinates": [-3.1756, 55.9238]
      }
    },
    {
      "type": "Feature",
      "properties": {
        "name": "Duddingston & Craigmillar",
        "closed": 1962,
        "notes": "Near Duddingston Road West"
      },
      "geometry": {
        "type": "Point",
        "coordinates": [-3.1512, 55.9265]
      }
    },
    {
      "type": "Feature",
      "properties": {
        "name": "Portobello",
        "closed": 1964,
        "notes": "Near Portobello High Street, station building partially survives"
      },
      "geometry": {
        "type": "Point",
        "coordinates": [-3.1143, 55.9431]
      }
    },
    {
      "type": "Feature",
      "properties": {
        "name": "Niddrie",
        "closed": 1962,
        "notes": "Near Niddrie Mains Road"
      },
      "geometry": {
        "type": "Point",
        "coordinates": [-3.1312, 55.9312]
      }
    }
  ]
}
